<?xml version="1.0" encoding="UTF-8"?>
<kml xmlns="http://www.opengis.net/kml/2.2"><Document>
<name>Nashik Kumbh Choke Points and Parking</name>
<Placemark>
<name>Dwarka Circle / Dwarka Chowk</name>
<description>Category: Traffic choke point | Status: confirmed 2027 project | Risk: very high | Source: https://www.freepressjournal.in/pune/centre-approves-214-crore-fornashiks-dwarka-chowk-upgrade | Note: Vital artery connecting Mumbai-Agra NH, Nashik Road, Panchavati, city centre and industrial routes; specifically upgraded for Kumbh readiness.</description>
<Point><coordinates>73.79564,19.98695,0</coordinates></Point>
</Placemark>
<Placemark>
<name>Nashik Road-Dwarka corridor</name>
<description>Category: Traffic choke point | Status: confirmed 2027 project | Risk: very high | Source: https://infra.economictimes.indiatimes.com/news/urban-transportation/residents-cheer-10-lane-plan-of-nashik-road-dwarka-section/128244576 | Note: Key commuter and pilgrim corridor where minor breakdowns can create long tailbacks.</description>
<Point><coordinates>73.8014105,19.9871372,0</coordinates></Point>
</Placemark>
<Placemark>
<name>Kathe Galli</name>
<description>Category: Traffic choke point | Status: confirmed 2027 project | Risk: high | Source: https://infra.economictimes.indiatimes.com/news/urban-transportation/residents-cheer-10-lane-plan-of-nashik-road-dwarka-section/128244576 | Note: Named pinch point on Nashik Road-Dwarka stretch.</description>
<Point><coordinates>73.8078,19.9739,0</coordinates></Point>
</Placemark>
<Placemark>
<name>Fame Signal</name>
<description>Category: Traffic choke point | Status: confirmed 2027 project | Risk: high | Source: https://infra.economictimes.indiatimes.com/news/urban-transportation/residents-cheer-10-lane-plan-of-nashik-road-dwarka-section/128244576 | Note: Named signal choke point on Nashik Road-Dwarka stretch.</description>
<Point><coordinates>73.821,19.9645,0</coordinates></Point>
</Placemark>
<Placemark>
<name>Upnagar</name>
<description>Category: Traffic choke point | Status: confirmed 2027 project | Risk: high | Source: https://infra.economictimes.indiatimes.com/news/urban-transportation/residents-cheer-10-lane-plan-of-nashik-road-dwarka-section/128244576 | Note: Named congestion area on Nashik Road-Dwarka stretch.</description>
<Point><coordinates>73.8167,19.9717777,0</coordinates></Point>
</Placemark>
<Placemark>
<name>Upnagar Junction</name>
<description>Category: Traffic choke point | Status: confirmed 2027 project | Risk: high | Source: https://infra.economictimes.indiatimes.com/news/urban-transportation/residents-cheer-10-lane-plan-of-nashik-road-dwarka-section/128244576 | Note: Named congestion junction on Nashik Road-Dwarka stretch.</description>
<Point><coordinates>73.8354,19.9549,0</coordinates></Point>
</Placemark>
<Placemark>
<name>Datta Mandir Signal</name>
<description>Category: Traffic choke point | Status: confirmed 2027 project | Risk: high | Source: https://infra.economictimes.indiatimes.com/news/urban-transportation/residents-cheer-10-lane-plan-of-nashik-road-dwarka-section/128244576 | Note: Named signal choke point on Nashik Road-Dwarka stretch.</description>
<Point><coordinates>73.8395,19.9515,0</coordinates></Point>
</Placemark>
<Placemark>
<name>Dr. Ambedkar Nagar</name>
<description>Category: Traffic choke point | Status: confirmed 2027 project | Risk: medium | Source: https://infra.economictimes.indiatimes.com/news/urban-transportation/residents-cheer-10-lane-plan-of-nashik-road-dwarka-section/128244576 | Note: Named congestion area on Nashik Road-Dwarka stretch.</description>
<Point><coordinates>73.846,19.9529,0</coordinates></Point>
</Placemark>
<Placemark>
<name>Mumbai Naka</name>
<description>Category: Traffic choke point | Status: analyst derived from route behavior | Risk: high | Source: https://infra.economictimes.indiatimes.com/news/urban-transportation/residents-cheer-10-lane-plan-of-nashik-road-dwarka-section/128244576 | Note: Likely spillover point when traffic bypasses Dwarka via Kathe Galli-Mumbai Naka.</description>
<Point><coordinates>73.7839866,19.9870794,0</coordinates></Point>
</Placemark>
<Placemark>
<name>Panchavati / Ramkund access zone</name>
<description>Category: No-vehicle pressure zone | Status: confirmed Kumbh pressure zone | Risk: very high | Source: https://www.travelandtourworld.com/news/article/complete-guide-to-nashik-kumbh-mela-2027-verified-travel-routes-accommodation-and-safety-tips/ | Note: Main sacred bathing pressure area; private vehicles expected to be shifted to outer parking on peak days.</description>
<Point><coordinates>73.79062,20.0067,0</coordinates></Point>
</Placemark>
<Placemark>
<name>Ramkund</name>
<description>Category: No-vehicle pressure zone | Status: confirmed Kumbh pressure zone | Risk: very high | Source: https://www.travelandtourworld.com/news/article/complete-guide-to-nashik-kumbh-mela-2027-verified-travel-routes-accommodation-and-safety-tips/ | Note: Core bathing site and crowd-density hotspot.</description>
<Point><coordinates>73.79062,20.0067,0</coordinates></Point>
</Placemark>
<Placemark>
<name>Godavari Ghat approaches</name>
<description>Category: No-vehicle pressure zone | Status: confirmed Kumbh pressure zone | Risk: very high | Source: https://www.travelandtourworld.com/news/article/complete-guide-to-nashik-kumbh-mela-2027-verified-travel-routes-accommodation-and-safety-tips/ | Note: Cluster of bathing-ghat approaches needing pedestrian segregation and emergency access.</description>
<Point><coordinates>73.7902,20.0064,0</coordinates></Point>
</Placemark>
<Placemark>
<name>Nashik Road Railway Station</name>
<description>Category: Transfer node | Status: confirmed rail planning | Risk: very high | Source: https://www.devdiscourse.com/article/business/3860652-comprehensive-plan-unveiled-for-crowd-management-at-kumbh-mela | Note: Major railway arrival node; Central Railway preparing holding areas, CCTV and announcements.</description>
<Point><coordinates>73.84059,19.94884,0</coordinates></Point>
</Placemark>
<Placemark>
<name>Bitco Signal / Bitco Chowk</name>
<description>Category: Traffic choke point | Status: black spot / parking route | Risk: high | Source: https://cdnbbsr.s3waas.gov.in/s35dec707028b05bcbd3a1db5640f842c5/uploads/2025/01/202501241645153799.pdf | Note: Station-side control point and black-spot reference near Nashik Road.</description>
<Point><coordinates>73.839,19.9497,0</coordinates></Point>
</Placemark>
<Placemark>
<name>CBS / Central Bus Stand</name>
<description>Category: Transfer node | Status: parking / transfer planning | Risk: high | Source: https://www.lokmattimes.com/nashik/nashik-kumbh-mela-2027-nmc-chalks-out-parking-plan-35-locations-identified-a519/ | Note: Inner-city transfer and parking corridor around CBS-Shalimar.</description>
<Point><coordinates>73.7799,19.9972,0</coordinates></Point>
</Placemark>
<Placemark>
<name>Thakkar Bazaar / New Thakkar Bazar</name>
<description>Category: Transfer node | Status: historical route reference | Risk: high | Source: https://kumbhmela.com/nasik-kumbh-2015/how-to-get-there/ | Note: Historic Kumbh bus movement node near city core.</description>
<Point><coordinates>73.7774,19.9964,0</coordinates></Point>
</Placemark>
<Placemark>
<name>Trimbak Road exit / Nashik-Trimbak Road</name>
<description>Category: Traffic choke point | Status: confirmed 2027 project | Risk: high | Source: https://www.travelandtourworld.com/news/article/complete-guide-to-nashik-kumbh-mela-2027-verified-travel-routes-accommodation-and-safety-tips/ | Note: Primary link from Nashik to Trimbakeshwar; expansion planned for Kumbh readiness.</description>
<Point><coordinates>73.6615256,19.9663708,0</coordinates></Point>
</Placemark>
<Placemark>
<name>ABB Circle / ABB Signal</name>
<description>Category: Traffic choke point | Status: black spot / route reference | Risk: high | Source: https://cdnbbsr.s3waas.gov.in/s35dec707028b05bcbd3a1db5640f842c5/uploads/2025/01/202501241645153799.pdf | Note: Important western-side control point on Trimbak/Satpur movement.</description>
<Point><coordinates>73.7505,20.0029,0</coordinates></Point>
</Placemark>
<Placemark>
<name>Adgaon</name>
<description>Category: Traffic choke point | Status: black spot / historical parking | Risk: high | Source: https://cdnbbsr.s3waas.gov.in/s35dec707028b05bcbd3a1db5640f842c5/uploads/2025/01/202501241645153799.pdf | Note: Northern approach and historic outer parking belt.</description>
<Point><coordinates>73.4130156,20.0251185,0</coordinates></Point>
</Placemark>
<Placemark>
<name>Jatra Hotel</name>
<description>Category: Traffic choke point | Status: black spot reference | Risk: medium | Source: https://cdnbbsr.s3waas.gov.in/s35dec707028b05bcbd3a1db5640f842c5/uploads/2025/01/202501241645153799.pdf | Note: Northern approach black-spot area to monitor for pilgrim bus inflow.</description>
<Point><coordinates>73.8235,20.0358,0</coordinates></Point>
</Placemark>
<Placemark>
<name>Amrutdham</name>
<description>Category: Traffic choke point | Status: black spot reference | Risk: medium | Source: https://cdnbbsr.s3waas.gov.in/s35dec707028b05bcbd3a1db5640f842c5/uploads/2025/01/202501241645153799.pdf | Note: Northern approach black-spot area.</description>
<Point><coordinates>73.8206889,20.0240143,0</coordinates></Point>
</Placemark>
<Placemark>
<name>K.K. Wagh College / K.K. Wagh belt</name>
<description>Category: Traffic choke point | Status: black spot / route reference | Risk: medium | Source: https://cdnbbsr.s3waas.gov.in/s35dec707028b05bcbd3a1db5640f842c5/uploads/2025/01/202501241645153799.pdf | Note: Northern/eastern approach and route return reference.</description>
<Point><coordinates>73.8219246,20.0134117,0</coordinates></Point>
</Placemark>
<Placemark>
<name>Canada Corner</name>
<description>Category: Traffic choke point | Status: parking corridor | Risk: medium | Source: https://www.lokmattimes.com/nashik/nashik-kumbh-mela-2027-nmc-chalks-out-parking-plan-35-locations-identified-a519/ | Note: Parking and movement corridor around Canada Corner.</description>
<Point><coordinates>73.769685,20.0025076,0</coordinates></Point>
</Placemark>
<Placemark>
<name>Gangapur Naka</name>
<description>Category: Traffic choke point | Status: parking corridor | Risk: medium | Source: https://www.lokmattimes.com/nashik/nashik-kumbh-mela-2027-nmc-chalks-out-parking-plan-35-locations-identified-a519/ | Note: Parking and local movement corridor.</description>
<Point><coordinates>73.7638,20.0078,0</coordinates></Point>
</Placemark>
<Placemark>
<name>Jehan Circle</name>
<description>Category: Traffic choke point | Status: parking corridor | Risk: medium | Source: https://www.lokmattimes.com/nashik/nashik-kumbh-mela-2027-nmc-chalks-out-parking-plan-35-locations-identified-a519/ | Note: Parking junction feeding ABB/Gangapur belts.</description>
<Point><coordinates>73.7592,20.0028,0</coordinates></Point>
</Placemark>
<Placemark>
<name>Ashok Stambh</name>
<description>Category: Traffic choke point | Status: historical route reference | Risk: high | Source: https://kumbhmela.com/nasik-kumbh-2015/how-to-get-there/ | Note: Historic Kumbh route point toward Panchavati/Ramkund.</description>
<Point><coordinates>73.7848996,20.006844,0</coordinates></Point>
</Placemark>
<Placemark>
<name>Ramsetu Bridge</name>
<description>Category: Traffic choke point | Status: historical route reference | Risk: high | Source: https://kumbhmela.com/nasik-kumbh-2015/how-to-get-there/ | Note: Bridge crossing on historic Kumbh route to Gandhi Tank/Ramkund side.</description>
<Point><coordinates>73.789,20.0082,0</coordinates></Point>
</Placemark>
<Placemark>
<name>Dahipul</name>
<description>Category: Traffic choke point | Status: historical route reference | Risk: high | Source: https://kumbhmela.com/nasik-kumbh-2015/how-to-get-there/ | Note: Core-city pinch point on historic Trimbak-side route into Panchavati.</description>
<Point><coordinates>73.786,20.0025,0</coordinates></Point>
</Placemark>
<Placemark>
<name>Delhi Darwaja</name>
<description>Category: Traffic choke point | Status: historical route reference | Risk: medium | Source: https://kumbhmela.com/nasik-kumbh-2015/how-to-get-there/ | Note: Historic approach to Rokdoba Maidan / old-city crowd movement.</description>
<Point><coordinates>73.7875,20.0055,0</coordinates></Point>
</Placemark>
<Placemark>
<name>Nandur Naka</name>
<description>Category: Traffic choke point | Status: historical route reference | Risk: medium | Source: https://kumbhmela.com/nasik-kumbh-2015/how-to-get-there/ | Note: Eastern approach route for Aurangabad/Odha inflow.</description>
<Point><coordinates>73.831,20.0048,0</coordinates></Point>
</Placemark>
<Placemark>
<name>Sant Janardan Swami Bridge</name>
<description>Category: Traffic choke point | Status: historical route reference | Risk: medium | Source: https://kumbhmela.com/nasik-kumbh-2015/how-to-get-there/ | Note: Bridge crossing on eastern and Nashik Road Kumbh routes.</description>
<Point><coordinates>73.8173,20.0019,0</coordinates></Point>
</Placemark>
<Placemark>
<name>Jail Road / Currency Note Press belt</name>
<description>Category: Traffic choke point | Status: historical route reference | Risk: medium | Source: https://kumbhmela.com/nasik-kumbh-2015/how-to-get-there/ | Note: Historic movement route from Nashik Road/Sinnar side toward ghats.</description>
<Point><coordinates>73.838949,19.9647084,0</coordinates></Point>
</Placemark>
<Placemark>
<name>Kulkarni Garden to Sadhu Vaswani Road</name>
<description>Category: Parking | Status: confirmed 2027 parking list | Risk: medium | Source: https://www.lokmattimes.com/nashik/nashik-kumbh-mela-2027-nmc-chalks-out-parking-plan-35-locations-identified-a519/ | Note: NMC-listed parking corridor; exact entry/exit to be field-verified.</description>
<Point><coordinates>73.7695,20.0045,0</coordinates></Point>
</Placemark>
<Placemark>
<name>Kulkarni Garden to BSNL Office</name>
<description>Category: Parking | Status: confirmed 2027 parking list | Risk: medium | Source: https://www.lokmattimes.com/nashik/nashik-kumbh-mela-2027-nmc-chalks-out-parking-plan-35-locations-identified-a519/ | Note: NMC-listed parking corridor; exact entry/exit to be field-verified.</description>
<Point><coordinates>73.773,20.0038,0</coordinates></Point>
</Placemark>
<Placemark>
<name>Jyoti Store-Rishikesh Hospital-Gangapur Naka</name>
<description>Category: Parking | Status: confirmed 2027 parking list | Risk: medium | Source: https://www.lokmattimes.com/nashik/nashik-kumbh-mela-2027-nmc-chalks-out-parking-plan-35-locations-identified-a519/ | Note: NMC-listed parking corridor; exact entry/exit to be field-verified.</description>
<Point><coordinates>73.7655,20.0073,0</coordinates></Point>
</Placemark>
<Placemark>
<name>Pramod Mahajan Park Entrance</name>
<description>Category: Parking | Status: confirmed 2027 parking list | Risk: medium | Source: https://www.lokmattimes.com/nashik/nashik-kumbh-mela-2027-nmc-chalks-out-parking-plan-35-locations-identified-a519/ | Note: NMC-listed parking corridor; exact entry/exit to be field-verified.</description>
<Point><coordinates>73.8306054,20.0231553,0</coordinates></Point>
</Placemark>
<Placemark>
<name>Gangapur Naka to Jehan Circle</name>
<description>Category: Parking | Status: confirmed 2027 parking list | Risk: medium | Source: https://www.lokmattimes.com/nashik/nashik-kumbh-mela-2027-nmc-chalks-out-parking-plan-35-locations-identified-a519/ | Note: NMC-listed parking corridor; exact entry/exit to be field-verified.</description>
<Point><coordinates>73.7615,20.0053,0</coordinates></Point>
</Placemark>
<Placemark>
<name>Jehan Circle to Guruji Hospital</name>
<description>Category: Parking | Status: confirmed 2027 parking list | Risk: medium | Source: https://www.lokmattimes.com/nashik/nashik-kumbh-mela-2027-nmc-chalks-out-parking-plan-35-locations-identified-a519/ | Note: NMC-listed parking corridor; exact entry/exit to be field-verified.</description>
<Point><coordinates>73.7584,20.002,0</coordinates></Point>
</Placemark>
<Placemark>
<name>Jehan Circle to ABB Circle</name>
<description>Category: Parking | Status: confirmed 2027 parking list | Risk: medium | Source: https://www.lokmattimes.com/nashik/nashik-kumbh-mela-2027-nmc-chalks-out-parking-plan-35-locations-identified-a519/ | Note: NMC-listed parking corridor; exact entry/exit to be field-verified.</description>
<Point><coordinates>73.7548,20.0028,0</coordinates></Point>
</Placemark>
<Placemark>
<name>Guruji Hospital to Pipeline Road</name>
<description>Category: Parking | Status: confirmed 2027 parking list | Risk: medium | Source: https://www.lokmattimes.com/nashik/nashik-kumbh-mela-2027-nmc-chalks-out-parking-plan-35-locations-identified-a519/ | Note: NMC-listed parking corridor; exact entry/exit to be field-verified.</description>
<Point><coordinates>73.7561,20.0031,0</coordinates></Point>
</Placemark>
<Placemark>
<name>Modak Point to Khadkali Road</name>
<description>Category: Parking | Status: confirmed 2027 parking list | Risk: medium | Source: https://www.lokmattimes.com/nashik/nashik-kumbh-mela-2027-nmc-chalks-out-parking-plan-35-locations-identified-a519/ | Note: NMC-listed parking corridor; exact entry/exit to be field-verified.</description>
<Point><coordinates>73.7854,19.9972,0</coordinates></Point>
</Placemark>
<Placemark>
<name>Thattenagar Road</name>
<description>Category: Parking | Status: confirmed 2027 parking list | Risk: medium | Source: https://www.lokmattimes.com/nashik/nashik-kumbh-mela-2027-nmc-chalks-out-parking-plan-35-locations-identified-a519/ | Note: NMC-listed parking corridor; exact entry/exit to be field-verified.</description>
<Point><coordinates>73.7678,20.0007,0</coordinates></Point>
</Placemark>
<Placemark>
<name>Behind Kulkarni Udyan</name>
<description>Category: Parking | Status: confirmed 2027 parking list | Risk: medium | Source: https://www.lokmattimes.com/nashik/nashik-kumbh-mela-2027-nmc-chalks-out-parking-plan-35-locations-identified-a519/ | Note: NMC-listed parking corridor; exact entry/exit to be field-verified.</description>
<Point><coordinates>73.77,20.0042,0</coordinates></Point>
</Placemark>
<Placemark>
<name>Shraddha Petrol Pump to Bestside Mall</name>
<description>Category: Parking | Status: confirmed 2027 parking list | Risk: medium | Source: https://www.lokmattimes.com/nashik/nashik-kumbh-mela-2027-nmc-chalks-out-parking-plan-35-locations-identified-a519/ | Note: NMC-listed parking corridor; exact entry/exit to be field-verified.</description>
<Point><coordinates>73.7615,19.9988,0</coordinates></Point>
</Placemark>
<Placemark>
<name>CBS to Shalimar</name>
<description>Category: Parking | Status: confirmed 2027 parking list | Risk: medium | Source: https://www.lokmattimes.com/nashik/nashik-kumbh-mela-2027-nmc-chalks-out-parking-plan-35-locations-identified-a519/ | Note: NMC-listed parking corridor; exact entry/exit to be field-verified.</description>
<Point><coordinates>73.7836,19.9992,0</coordinates></Point>
</Placemark>
<Placemark>
<name>Canada Corner to Vise Mala</name>
<description>Category: Parking | Status: confirmed 2027 parking list | Risk: medium | Source: https://www.lokmattimes.com/nashik/nashik-kumbh-mela-2027-nmc-chalks-out-parking-plan-35-locations-identified-a519/ | Note: NMC-listed parking corridor; exact entry/exit to be field-verified.</description>
<Point><coordinates>73.774,20.0035,0</coordinates></Point>
</Placemark>
<Placemark>
<name>Gadge Maharaj Bridge to Talakuteshwar</name>
<description>Category: Parking | Status: confirmed 2027 parking list | Risk: medium | Source: https://www.lokmattimes.com/nashik/nashik-kumbh-mela-2027-nmc-chalks-out-parking-plan-35-locations-identified-a519/ | Note: NMC-listed parking corridor; exact entry/exit to be field-verified.</description>
<Point><coordinates>73.792,20.0057,0</coordinates></Point>
</Placemark>
<Placemark>
<name>Model Colony Chowk to Bhosla Gate</name>
<description>Category: Parking | Status: confirmed 2027 parking list | Risk: medium | Source: https://www.lokmattimes.com/nashik/nashik-kumbh-mela-2027-nmc-chalks-out-parking-plan-35-locations-identified-a519/ | Note: NMC-listed parking corridor; exact entry/exit to be field-verified.</description>
<Point><coordinates>73.767,20.0047,0</coordinates></Point>
</Placemark>
<Placemark>
<name>Pandit Colony Palika Building</name>
<description>Category: Parking | Status: confirmed 2027 parking list | Risk: medium | Source: https://www.lokmattimes.com/nashik/nashik-kumbh-mela-2027-nmc-chalks-out-parking-plan-35-locations-identified-a519/ | Note: NMC-listed parking corridor; exact entry/exit to be field-verified.</description>
<Point><coordinates>73.7742,20.0005,0</coordinates></Point>
</Placemark>
<Placemark>
<name>Shalimar to Nehru Garden</name>
<description>Category: Parking | Status: confirmed 2027 parking list | Risk: medium | Source: https://www.lokmattimes.com/nashik/nashik-kumbh-mela-2027-nmc-chalks-out-parking-plan-35-locations-identified-a519/ | Note: NMC-listed parking corridor; exact entry/exit to be field-verified.</description>
<Point><coordinates>73.7863,20.001,0</coordinates></Point>
</Placemark>
<Placemark>
<name>HDFC Chowk to MSEB Office</name>
<description>Category: Parking | Status: confirmed 2027 parking list | Risk: medium | Source: https://www.lokmattimes.com/nashik/nashik-kumbh-mela-2027-nmc-chalks-out-parking-plan-35-locations-identified-a519/ | Note: NMC-listed parking corridor; exact entry/exit to be field-verified.</description>
<Point><coordinates>73.773,20.0003,0</coordinates></Point>
</Placemark>
<Placemark>
<name>Chhatrapati Shivaji Statue to Dr. Ambedkar Statue, Nashik Road</name>
<description>Category: Parking | Status: confirmed 2027 parking list | Risk: medium | Source: https://www.lokmattimes.com/nashik/nashik-kumbh-mela-2027-nmc-chalks-out-parking-plan-35-locations-identified-a519/ | Note: NMC-listed parking corridor; exact entry/exit to be field-verified.</description>
<Point><coordinates>73.8409,19.9521,0</coordinates></Point>
</Placemark>
<Placemark>
<name>Mahatma Gandhi Road</name>
<description>Category: Parking | Status: confirmed 2027 parking list | Risk: medium | Source: https://www.lokmattimes.com/nashik/nashik-kumbh-mela-2027-nmc-chalks-out-parking-plan-35-locations-identified-a519/ | Note: NMC-listed parking corridor; exact entry/exit to be field-verified.</description>
<Point><coordinates>73.784,20.0004,0</coordinates></Point>
</Placemark>
<Placemark>
<name>Canada Corner to Panasonic Gallery</name>
<description>Category: Parking | Status: confirmed 2027 parking list | Risk: medium | Source: https://www.lokmattimes.com/nashik/nashik-kumbh-mela-2027-nmc-chalks-out-parking-plan-35-locations-identified-a519/ | Note: NMC-listed parking corridor; exact entry/exit to be field-verified.</description>
<Point><coordinates>73.7755,20.0029,0</coordinates></Point>
</Placemark>
<Placemark>
<name>Bitco Signal to Mahatma Gandhi Road</name>
<description>Category: Parking | Status: confirmed 2027 parking list | Risk: medium | Source: https://www.lokmattimes.com/nashik/nashik-kumbh-mela-2027-nmc-chalks-out-parking-plan-35-locations-identified-a519/ | Note: NMC-listed parking corridor; exact entry/exit to be field-verified.</description>
<Point><coordinates>73.8408,19.9491,0</coordinates></Point>
</Placemark>
<Placemark>
<name>Jehan Circle to Nelinkar Circle</name>
<description>Category: Parking | Status: confirmed 2027 parking list | Risk: medium | Source: https://www.lokmattimes.com/nashik/nashik-kumbh-mela-2027-nmc-chalks-out-parking-plan-35-locations-identified-a519/ | Note: NMC-listed parking corridor; exact entry/exit to be field-verified.</description>
<Point><coordinates>73.757,20.002,0</coordinates></Point>
</Placemark>
<Placemark>
<name>Shaheed Circle to Model Colony Circle</name>
<description>Category: Parking | Status: confirmed 2027 parking list | Risk: medium | Source: https://www.lokmattimes.com/nashik/nashik-kumbh-mela-2027-nmc-chalks-out-parking-plan-35-locations-identified-a519/ | Note: NMC-listed parking corridor; exact entry/exit to be field-verified.</description>
<Point><coordinates>73.7675,20.0042,0</coordinates></Point>
</Placemark>
<Placemark>
<name>Veterinary Clinic</name>
<description>Category: Parking | Status: confirmed 2027 parking list | Risk: medium | Source: https://www.lokmattimes.com/nashik/nashik-kumbh-mela-2027-nmc-chalks-out-parking-plan-35-locations-identified-a519/ | Note: NMC-listed parking corridor; exact entry/exit to be field-verified.</description>
<Point><coordinates>73.7866,19.9975,0</coordinates></Point>
</Placemark>
<Placemark>
<name>BD Bhalekar School Ground</name>
<description>Category: Parking | Status: confirmed 2027 parking list | Risk: high | Source: https://www.lokmattimes.com/nashik/nashik-kumbh-mela-2027-nmc-chalks-out-parking-plan-35-locations-identified-a519/ | Note: NMC-listed off-street parking site; exact usable area/capacity to be field-verified.</description>
<Point><coordinates>73.7812,19.9987,0</coordinates></Point>
</Placemark>
<Placemark>
<name>Anna Shastri Main Road</name>
<description>Category: Parking | Status: confirmed 2027 parking list | Risk: high | Source: https://www.lokmattimes.com/nashik/nashik-kumbh-mela-2027-nmc-chalks-out-parking-plan-35-locations-identified-a519/ | Note: NMC-listed off-street parking site; exact usable area/capacity to be field-verified.</description>
<Point><coordinates>73.8378,19.951,0</coordinates></Point>
</Placemark>
<Placemark>
<name>Angora Complex</name>
<description>Category: Parking | Status: confirmed 2027 parking list | Risk: high | Source: https://www.lokmattimes.com/nashik/nashik-kumbh-mela-2027-nmc-chalks-out-parking-plan-35-locations-identified-a519/ | Note: NMC-listed off-street parking site; exact usable area/capacity to be field-verified.</description>
<Point><coordinates>73.778,20.0002,0</coordinates></Point>
</Placemark>
<Placemark>
<name>Shatabdi Hospital</name>
<description>Category: Parking | Status: confirmed 2027 parking list | Risk: high | Source: https://www.lokmattimes.com/nashik/nashik-kumbh-mela-2027-nmc-chalks-out-parking-plan-35-locations-identified-a519/ | Note: NMC-listed off-street parking site; exact usable area/capacity to be field-verified.</description>
<Point><coordinates>73.7840439,19.988147,0</coordinates></Point>
</Placemark>
<Placemark>
<name>Rajur Bahula</name>
<description>Category: Outer parking | Status: historical 2015 reference | Risk: medium | Source: https://kumbhmela.com/nasik-kumbh-2015/how-to-get-there/ | Note: Historical Simhastha parking reference; validate against final 2027 traffic notification.</description>
<Point><coordinates>73.673,19.946,0</coordinates></Point>
</Placemark>
<Placemark>
<name>Dugaon Phata</name>
<description>Category: Outer parking | Status: historical 2015 reference | Risk: medium | Source: https://kumbhmela.com/nasik-kumbh-2015/how-to-get-there/ | Note: Historical Simhastha parking reference; validate against final 2027 traffic notification.</description>
<Point><coordinates>73.719,20.031,0</coordinates></Point>
</Placemark>
<Placemark>
<name>Thakkar Maidan</name>
<description>Category: Outer parking | Status: historical 2015 reference | Risk: medium | Source: https://kumbhmela.com/nasik-kumbh-2015/how-to-get-there/ | Note: Historical Simhastha parking reference; validate against final 2027 traffic notification.</description>
<Point><coordinates>73.7725,20.004,0</coordinates></Point>
</Placemark>
<Placemark>
<name>Adgaon outer parking</name>
<description>Category: Outer parking | Status: historical 2015 reference | Risk: medium | Source: https://kumbhmela.com/nasik-kumbh-2015/how-to-get-there/ | Note: Historical Simhastha parking reference; validate against final 2027 traffic notification.</description>
<Point><coordinates>73.838,20.042,0</coordinates></Point>
</Placemark>
<Placemark>
<name>Mhasrul</name>
<description>Category: Outer parking | Status: historical 2015 reference | Risk: medium | Source: https://kumbhmela.com/nasik-kumbh-2015/how-to-get-there/ | Note: Historical Simhastha parking reference; validate against final 2027 traffic notification.</description>
<Point><coordinates>73.8049507,20.0463365,0</coordinates></Point>
</Placemark>
<Placemark>
<name>Madsangavi</name>
<description>Category: Outer parking | Status: historical 2015 reference | Risk: medium | Source: https://kumbhmela.com/nasik-kumbh-2015/how-to-get-there/ | Note: Historical Simhastha parking reference; validate against final 2027 traffic notification.</description>
<Point><coordinates>73.883,20.066,0</coordinates></Point>
</Placemark>
<Placemark>
<name>Chincholi</name>
<description>Category: Outer parking | Status: historical 2015 reference | Risk: medium | Source: https://kumbhmela.com/nasik-kumbh-2015/how-to-get-there/ | Note: Historical Simhastha parking reference; validate against final 2027 traffic notification.</description>
<Point><coordinates>73.9094495,19.8975833,0</coordinates></Point>
</Placemark>
<Placemark>
<name>Khambale</name>
<description>Category: Outer parking | Status: historical 2015 reference | Risk: medium | Source: https://kumbhmela.com/nasik-kumbh-2015/how-to-get-there/ | Note: Historical Simhastha parking reference; validate against final 2027 traffic notification.</description>
<Point><coordinates>73.632102,19.9548411,0</coordinates></Point>
</Placemark>
<Placemark>
<name>Pahine</name>
<description>Category: Outer parking | Status: historical 2015 reference | Risk: medium | Source: https://kumbhmela.com/nasik-kumbh-2015/how-to-get-there/ | Note: Historical Simhastha parking reference; validate against final 2027 traffic notification.</description>
<Point><coordinates>73.5527429,19.8993936,0</coordinates></Point>
</Placemark>
<Placemark>
<name>Talwade</name>
<description>Category: Outer parking | Status: historical 2015 reference | Risk: medium | Source: https://kumbhmela.com/nasik-kumbh-2015/how-to-get-there/ | Note: Historical Simhastha parking reference; validate against final 2027 traffic notification.</description>
<Point><coordinates>73.5553417,19.9736973,0</coordinates></Point>
</Placemark>
<Placemark>
<name>Mahamarg Bus Stand</name>
<description>Category: Transfer node | Status: historical 2015 reference | Risk: medium | Source: https://kumbhmela.com/nasik-kumbh-2015/how-to-get-there/ | Note: Historical inner bus stand / shuttle transfer node.</description>
<Point><coordinates>73.7829469,19.9888004,0</coordinates></Point>
</Placemark>
<Placemark>
<name>Satpur Bus Stand</name>
<description>Category: Transfer node | Status: historical 2015 reference | Risk: medium | Source: https://kumbhmela.com/nasik-kumbh-2015/how-to-get-there/ | Note: Historical inner bus stand / shuttle transfer node.</description>
<Point><coordinates>73.7319231,19.9912276,0</coordinates></Point>
</Placemark>
<Placemark>
<name>Sharad Chandra Pawar Market</name>
<description>Category: Transfer node | Status: historical 2015 reference | Risk: medium | Source: https://kumbhmela.com/nasik-kumbh-2015/how-to-get-there/ | Note: Historical inner bus stand / shuttle transfer node.</description>
<Point><coordinates>73.7905,20.0185,0</coordinates></Point>
</Placemark>
<Placemark>
<name>Nilgiri Baug</name>
<description>Category: Transfer node | Status: historical 2015 reference | Risk: medium | Source: https://kumbhmela.com/nasik-kumbh-2015/how-to-get-there/ | Note: Historical inner bus stand / shuttle transfer node.</description>
<Point><coordinates>73.8176,20.0132,0</coordinates></Point>
</Placemark>
<Placemark>
<name>Lakshmi Narayan Trust Hanuman Nagar</name>
<description>Category: Transfer node | Status: historical 2015 reference | Risk: medium | Source: https://kumbhmela.com/nasik-kumbh-2015/how-to-get-there/ | Note: Historical inner bus stand / shuttle transfer node.</description>
<Point><coordinates>73.8038,20.0224,0</coordinates></Point>
</Placemark>
<Placemark>
<name>Sinnar Bypass Market Yard</name>
<description>Category: Transfer node | Status: historical 2015 reference | Risk: medium | Source: https://kumbhmela.com/nasik-kumbh-2015/how-to-get-there/ | Note: Historical inner bus stand / shuttle transfer node.</description>
<Point><coordinates>73.858,19.932,0</coordinates></Point>
</Placemark>
<Placemark>
<name>Brahma Valley</name>
<description>Category: Transfer node | Status: historical 2015 reference | Risk: medium | Source: https://kumbhmela.com/nasik-kumbh-2015/how-to-get-there/ | Note: Historical inner bus stand / shuttle transfer node.</description>
<Point><coordinates>73.574,19.9264,0</coordinates></Point>
</Placemark>
<Placemark>
<name>Pegalwadi</name>
<description>Category: Transfer node | Status: historical 2015 reference | Risk: medium | Source: https://kumbhmela.com/nasik-kumbh-2015/how-to-get-there/ | Note: Historical inner bus stand / shuttle transfer node.</description>
<Point><coordinates>73.5537531,19.9393065,0</coordinates></Point>
</Placemark>
<Placemark>
<name>Peth Road parking belt</name>
<description>Category: Parking belt | Status: under joint survey | Risk: high | Source: https://www.freepressjournal.in/pune/nashik-simhastha-2027-ntkma-orders-joint-survey-of-parking-sites | Note: Large parking parcel belt under NMC/PWD/NTKMA physical verification; use as search area, not a final point.</description>
<Point><coordinates>73.7775,20.0305,0</coordinates></Point>
</Placemark>
<Placemark>
<name>Dindori Road parking belt</name>
<description>Category: Parking belt | Status: under joint survey | Risk: high | Source: https://www.freepressjournal.in/pune/nashik-simhastha-2027-ntkma-orders-joint-survey-of-parking-sites | Note: Large parking parcel belt under NMC/PWD/NTKMA physical verification; use as search area, not a final point.</description>
<Point><coordinates>73.8032903,20.0344735,0</coordinates></Point>
</Placemark>
<Placemark>
<name>Dhule Road parking belt</name>
<description>Category: Parking belt | Status: under joint survey | Risk: high | Source: https://www.freepressjournal.in/pune/nashik-simhastha-2027-ntkma-orders-joint-survey-of-parking-sites | Note: Large parking parcel belt under NMC/PWD/NTKMA physical verification; use as search area, not a final point.</description>
<Point><coordinates>73.833,20.04,0</coordinates></Point>
</Placemark>
<Placemark>
<name>Pune Road parking belt</name>
<description>Category: Parking belt | Status: under joint survey | Risk: high | Source: https://www.freepressjournal.in/pune/nashik-simhastha-2027-ntkma-orders-joint-survey-of-parking-sites | Note: Large parking parcel belt under NMC/PWD/NTKMA physical verification; use as search area, not a final point.</description>
<Point><coordinates>73.8592833,18.7572012,0</coordinates></Point>
</Placemark>
<Placemark>
<name>Mumbai Road parking belt</name>
<description>Category: Parking belt | Status: under joint survey | Risk: high | Source: https://www.freepressjournal.in/pune/nashik-simhastha-2027-ntkma-orders-joint-survey-of-parking-sites | Note: Large parking parcel belt under NMC/PWD/NTKMA physical verification; use as search area, not a final point.</description>
<Point><coordinates>73.8638745,20.0361024,0</coordinates></Point>
</Placemark>
</Document></kml>